name,latitude,longitude,醤油,豚骨,味噌,塩,つけ麺,家系,二郎系,担々麺,魚介,油そば,まぜそば,ちゃんぽん,鶏白湯
ラーメン いいかお,35.73928336919764,139.73040490301767,37,1,7,3,5,0,0,0,3,0,0,0,0
元祖めんたい煮こみつけ麺,35.72833243866889,139.71237918489808,0,0,3,0,22,0,0,0,0,0,0,0,0
船見坂,35.67138492308059,139.76935257235937,4,1,15,20,0,0,0,0,1,0,0,0,0
駄目な隣人 新宿店,35.69520672841719,139.70052552497697,14,0,0,2,0,0,0,0,1,0,1,0,0
九月堂,35.66387933870568,139.69938728425615,5,3,1,9,6,0,0,4,5,0,0,0,0
江戸前煮干中華そば きみはん 総本店,35.722095538694866,139.78150888478663,23,0,2,19,5,0,1,0,2,0,0,0,0
麺屋ぬかじ,35.662701282376794,139.6985816274719,3,1,0,1,22,0,3,0,5,0,0,0,0
中華そば つけそば 伊蔵八本店,35.732274238683885,139.7673336848994,10,2,5,0,4,0,0,0,4,0,0,0,0
麺ダイニング ととこ,35.696097638704956,139.7613057845382,11,0,0,1,0,0,0,1,0,0,0,1,0
麺堂にしき 新宿歌舞伎町店,35.6948147386871,139.70268318456633,22,0,0,5,8,0,0,0,12,2,0,0,0
らーめん 谷瀬家,35.66628983872212,139.75581418424096,9,4,0,1,2,28,0,0,0,0,0,0,0
香味徳  銀座店,35.6735703387219,139.76960118430483,8,2,8,0,7,0,0,0,5,0,0,0,0
香湯ラーメン ちょろり 恵比寿店,35.644554338723,139.71518058404988,9,0,1,17,0,0,0,0,0,0,0,0,0
支那そばはせべ,35.62680833873769,139.7259361838631,2,0,1,1,0,0,0,0,4,0,0,0,0
麺亭 しま田,35.64811593871869,139.70876668409036,10,0,0,3,7,0,0,0,0,0,5,0,0
麺や いま村,35.73287053867485,139.74013408492448,18,0,2,15,0,0,0,0,0,0,0,0,16
田中そば店 新橋店,35.6673918387206,139.75317368425394,2,8,0,7,0,0,0,0,0,0,0,0,0
横浜ラーメン 武蔵家 御茶ノ水店,35.697837530270526,139.76254108679737,13,10,5,4,1,27,1,0,0,0,0,0,0
LOKAHI,35.73366353867007,139.7267022849419,3,0,0,14,6,0,0,0,6,0,0,0,0
たきちゃんラーメン,35.667990038719225,139.75008748426214,4,2,0,6,0,1,0,0,0,0,0,0,0
栄屋 ミルクホール,35.69319552422441,139.77006834189808,4,0,0,0,0,0,0,0,0,0,0,0,0
九州じゃんがららあめん 原宿店,35.669592976419985,139.70341030115267,0,9,5,1,0,0,0,0,1,0,0,0,0
175°DENO担担麺 TOKYO,35.695194738685586,139.69869478457298,0,0,2,1,0,0,1,14,0,0,0,0,3
屯ちん 池袋西口店,35.73136823866635,139.71046098493008,9,21,10,1,0,1,0,0,2,0,0,0,0
ABCらーめん,35.672703538721414,139.76636158429832,9,1,11,5,3,0,0,4,0,0,0,0,0
万世麺店 有楽町店,35.67493163385634,139.76179053709302,6,0,0,0,0,0,0,0,0,0,0,0,0
京都銀閣寺 ますたに 日本橋本店,35.68102648969653,139.77495638527466,12,0,0,0,1,1,0,0,0,0,0,0,0
鶏そば みた葉,35.6944676386877,139.70391358456197,2,0,1,13,4,0,0,0,1,0,0,0,19
豚山 上野店,35.706210698818396,139.77257459022223,6,1,0,6,1,1,13,0,0,0,0,0,0
油そば専門店浜そば 本店,35.70834515691631,139.77052382893004,1,0,0,1,3,0,0,0,0,41,0,0,0
風雲児 東京ラーメン横丁店,35.68154174836396,139.76968116322595,2,0,0,2,7,0,0,0,6,0,0,0,4
アートマサシヤ,35.65541713870998,139.69599828417307,4,0,0,3,0,0,0,0,2,0,0,0,0
瀬佐味亭 虎ノ門店,35.66912663871929,139.7525734842719,0,0,0,0,1,0,0,9,0,0,0,0,0
本田麺業 神田西口駅前店,35.690751838711165,139.770190284478,10,0,0,20,29,0,0,0,4,0,0,0,0
ラーメン 神田店,35.68850997194328,139.77118435868422,6,0,0,5,6,0,9,0,0,0,0,0,0
麺舗 十六,35.73387152395072,139.702944654982,10,1,0,3,16,0,0,0,4,4,0,0,0
しゅういち 恵比寿店,35.64721043871912,139.70831368408153,0,0,0,0,26,0,0,0,0,6,0,0,0
炭火焼濃厚中華そば 海富道,35.693341738709734,139.77084588450364,0,1,1,1,0,0,0,0,6,0,0,0,0
めん徳 二代目 つじ田 新橋店,35.667565892776565,139.75269289239216,3,9,0,1,15,0,0,0,12,0,0,0,0
旨辛ラーメン 表裏 高田馬場店,35.71304013867697,139.70725338474722,0,0,10,0,4,0,5,5,0,0,0,1,0
つけ麺屋 ひまわり,35.71461413867457,139.7028490847662,0,13,0,1,49,0,0,0,10,9,0,0,0
炭火焼濃厚中華そば 奥倫道,35.65662733872737,139.75299308414532,0,0,2,1,1,0,0,0,0,0,0,0,1
谷ラーメン,35.67660663871847,139.7648960843388,14,3,0,3,0,0,0,0,0,0,0,0,0
横浜らーめん 山本家,35.6893025824072,139.69735967084955,6,5,0,0,0,30,0,0,0,0,0,0,0
孫鈴舎,35.67828783871759,139.76551818435536,4,10,1,3,7,1,0,0,5,0,0,0,0
壱蔵家,35.6987326818242,139.697185362258,8,13,27,22,1,26,0,0,0,0,1,0,0
らーめん いっとく,35.73014527736742,139.7624127697624,2,0,0,0,3,0,0,0,5,0,0,0,10
熊公,35.696064838711855,139.78289178452272,0,0,12,1,0,0,1,0,0,0,1,0,0
ラーメン龍の家 新宿小滝橋通り店,35.69605893868493,139.69835758458194,5,4,0,0,28,0,0,0,0,0,0,0,0
瞠 恵比寿店,35.6476236734565,139.71133765117492,0,2,0,2,5,0,0,0,5,15,0,0,0
青葉 御徒町店,35.70575633788052,139.77457305628056,6,5,0,6,22,0,0,0,11,0,0,0,0
らーめん  忍者,35.70031173870672,139.77528028457098,4,2,0,1,0,0,17,0,0,0,0,0,0
銀座 篝 大手町店,35.688528007614146,139.76466772769638,8,1,0,4,1,0,0,0,1,1,0,0,13
まぜそば 三ツ星,35.64751696154171,139.70809375882638,2,0,0,2,0,0,0,3,0,1,41,1,0
わ蔵 新宿店,35.69479626282216,139.70316226933863,0,26,0,1,1,0,0,0,1,0,0,0,0
らーめん田丸,35.634335338728555,139.71223018394875,5,0,0,3,0,1,0,2,0,0,0,0,0
横浜家系らーめん侍 渋谷本店,35.65884531505363,139.69910426160294,9,5,0,2,0,36,0,0,0,0,0,0,0
鶏ポタラーメンTHANK お茶の水,35.69388523870728,139.76423278451378,0,1,2,7,8,0,0,1,1,0,0,0,4
長岡生姜ラーメン しょうがの湯,35.65662923871214,139.70522298417885,20,0,0,1,0,0,0,0,0,0,0,0,0
横浜家系らーめん 武源家,35.64781323872981,139.74309638406322,5,3,0,3,0,29,0,0,0,4,0,0,0
博多一瑞亭 三田店,35.64877663872978,139.7449050840717,10,41,0,5,0,0,0,0,0,0,0,0,0
ラーショ マルミャー 池袋店,35.7327922386637,139.70495788494833,8,1,6,4,1,3,0,0,0,0,0,0,0
麺食堂 一真亭,35.71047372372992,139.78102202571947,19,0,1,7,7,0,0,0,0,7,1,0,1
ウミノイロ マグロ卸のマグロ丼とラーメンの店,35.669617938724244,139.76907538426528,6,0,0,7,0,0,0,0,0,0,0,0,2
広州市場 五反田店,35.62585765049851,139.72622519469115,11,0,0,23,0,0,0,1,2,0,0,0,0
らあめん渋英,35.65897763870883,139.6994788842066,1,50,7,0,2,0,1,2,0,0,0,0,0
節骨麺 たいぞう 池袋店,35.73201629933518,139.71053049928736,1,4,0,2,6,2,0,0,9,0,1,0,0
つけそば 黒門,35.694302938686,139.69823258456427,1,0,0,6,13,0,0,0,0,0,0,0,0
三吉,35.66784803872245,139.75991388425382,10,2,0,3,0,0,0,0,1,0,0,0,0
昌平ラーメン 新宿西口店,35.69355877750904,139.69642538581198,4,1,0,2,14,0,0,0,7,0,0,1,2
秋葉原つけ麺 油そば 楽,35.702820438703675,139.77069638459952,2,2,2,2,25,0,0,0,7,24,2,0,1
百年本舗 秋葉原総本店,35.70281643870373,139.77089398459935,17,0,0,7,3,0,0,0,0,0,4,0,0
室壱羅麺,35.68592103871595,139.7755551844254,3,8,15,0,2,0,0,0,11,0,0,0,0
忍八,35.657476441567496,139.7552146646652,2,3,2,2,37,0,0,0,16,1,0,0,0
護摩龍 百人町総本山,35.700115038682085,139.69755298462346,0,1,2,0,7,0,0,10,1,2,1,0,0
らーめん 大 大久保店,35.70020013868163,139.69631318462518,8,0,1,15,8,1,15,0,0,9,0,0,0
らうめん とくや,35.69606293870605,139.76471428453544,16,0,3,16,4,0,0,0,2,0,0,0,0
ミサト,35.701694538684734,139.70914818463157,18,3,19,18,0,1,0,0,0,0,0,0,0
担々麺 ぺんぺん,35.66617988230979,139.75104822107676,0,0,7,2,0,0,0,22,0,0,0,0,0
鶏そば かぐら屋 西新宿店,35.69636933356733,139.69776181208567,4,1,1,16,3,0,0,0,0,0,0,0,6
麺屋 義,35.73090845732665,139.76368030287315,14,0,0,26,0,0,0,0,6,0,0,0,0
すごい煮干ラーメン凪 新宿ゴールデン街店別館,35.69496943868726,139.7035294845673,3,0,0,1,0,0,0,0,1,3,0,0,0
案山子,35.70848412103618,139.7756817275023,21,0,0,8,2,0,0,0,0,0,0,0,5
SHRIMP NOODLE 海老ポタ,35.66634753872225,139.7563161842412,0,0,1,0,2,0,0,1,0,0,2,0,0
ひろちゃんラーメン!,35.73273231921789,139.70969220260537,12,0,0,13,1,0,0,0,0,0,0,0,0
鶏白湯専門 らーめん我羅奢,35.71051969935196,139.70993598284653,5,3,2,15,1,0,0,0,0,0,4,0,18
ふく流らーめん 轍 東京高田馬場本店,35.71254573867718,139.70692228474246,4,1,0,5,0,0,0,0,2,1,9,0,12
鶏そば・ラーメン Tonari,35.65818843870765,139.6941884842023,12,0,0,13,0,0,0,0,2,2,0,0,0
光来,35.695121358664856,139.697345807226,13,2,16,2,0,0,0,1,1,0,0,0,0
支那麺 はしご 銀座八丁目店,35.66756233872334,139.76215868424936,6,0,0,3,0,0,0,12,0,0,0,0,0
中華麺酒房 中華そば すずらん,35.64823220384152,139.7104424197282,2,0,0,2,0,0,0,4,0,0,0,0,0
MENYA NAKAGAWA,35.73357220181102,139.70811368392035,14,3,0,12,15,0,0,0,16,0,0,0,0
らーめん バリ男 新橋本店,35.668467159486816,139.7522977342166,6,13,0,2,3,0,9,0,0,0,0,0,0
俺の空 池袋店,35.73217653866766,139.71614778493426,1,0,0,1,14,0,0,0,12,0,1,0,0
環七土佐っ子ラーメン,35.732967538665115,139.70979308494674,7,2,0,3,0,0,0,0,0,0,0,0,0
極上中華そば 福味 東京駅　KITTE店,35.679505238716764,139.7653066843678,19,0,0,9,2,0,0,0,0,0,0,0,5
銀座 創龍,35.67159615471929,139.76164348065538,38,5,1,2,3,0,1,0,2,0,0,0,0
利しり,35.696000018739504,139.7029208450769,3,1,10,1,0,0,0,0,0,0,0,0,0
鷹流 高田馬場店,35.712539238675156,139.70056318474684,1,0,0,25,8,0,0,0,0,0,0,0,3
博多長浜ラーメン 呑龍,35.66452013872426,139.7589383842209,0,19,0,4,0,0,0,0,0,0,0,0,0
麺処 マゼル,35.69778829775695,139.77437260645766,15,0,0,7,0,0,11,0,0,0,22,0,0
東京らあめんタワー 芝大門本店,35.657569438727506,139.7553361841532,22,1,0,2,4,0,0,0,1,0,0,0,0
天虎,35.65407003872891,139.75274108411966,28,9,3,6,0,8,0,0,0,0,0,0,0
麺屋げんぞう,35.707779379980266,139.7702880412283,0,0,1,37,0,0,0,8,2,0,0,0,0
東京スタイルみそらーめん ど・みそ  京橋本店,35.675412538720295,139.76823598432438,0,2,57,1,1,0,0,0,2,0,0,0,0
175°DENO担担麺 GINZa,35.67359133872101,139.76686528430696,0,0,0,1,0,0,0,11,0,0,1,0,0
TOKYO豚骨BASE MADE by博多一風堂 品川店,35.62804123874107,139.7389887838664,8,37,3,1,1,1,0,0,0,0,0,0,0
ごっつ 秋葉原店,35.70059143870654,139.77528798457377,4,2,3,10,1,1,1,0,0,0,0,0,0
横浜ラーメン 町田家 新宿南口店,35.68852663869113,139.7028504845027,11,8,0,8,0,22,0,0,0,0,0,0,0
荒海,35.68680964111928,139.69605702531683,4,14,3,10,17,6,9,2,12,0,0,0,0
四川担担麺 阿吽 キッテグランシェ店,35.679680838716614,139.76519388436964,0,0,3,0,0,0,0,3,0,0,0,0,0
さっぽろ羅偉伝,35.712974828420215,139.70055359345903,2,0,24,6,0,0,0,0,0,0,0,0,0
松富,35.67137623872072,139.7615548842883,5,0,2,8,2,0,0,9,1,0,0,0,0
新高揚,35.68934473868908,139.69801508451434,6,0,0,4,10,0,0,0,0,0,0,0,0
道玄,35.71297098563501,139.70316948749735,15,0,0,7,0,0,0,0,0,1,0,0,3
焼麺　劔,35.71346575701892,139.70901370157802,0,16,0,0,0,0,0,0,8,0,0,0,0
盛運亭,35.64758023872793,139.73672008406535,6,1,0,7,0,0,0,0,0,0,0,0,0
えっちゃんラーメン。,35.64446160885338,139.74870663771614,2,2,0,5,6,1,0,0,0,0,0,0,0
らーめん かつお拳,35.697938432714984,139.78301827041255,4,0,0,7,2,0,0,0,6,0,1,0,0
くるめや,35.66744723872055,139.75312088425454,0,22,0,0,0,0,0,0,0,0,0,1,0
桃天花,35.73201888970094,139.7793306186564,0,0,0,2,22,0,0,15,1,0,0,0,0
創始 麺屋武蔵,35.69555443657047,139.69866871873094,2,6,1,1,19,0,0,0,8,0,0,0,0
屯ちん 池袋本店,35.7276478386696,139.71321608489058,12,29,1,2,1,0,0,0,8,0,0,0,0
焼きあご塩らー麺 たかはし 上野店,35.70827843870134,139.77430208465213,5,3,26,28,0,0,0,0,2,0,0,0,0
笠岡らーめん TAKETONBO,35.66769373872598,139.77068448424473,21,0,2,16,2,0,0,0,2,0,0,0,0
麺友 一誠,35.71249463867485,139.69948488474716,1,11,1,3,5,1,0,0,0,0,3,0,0
竹ちゃんタンメン,35.71810553869979,139.7889775847411,3,1,11,14,0,0,0,0,0,0,0,1,8
担々麺 かんだ橋 本店,35.692344138709956,139.76956608449447,0,0,13,0,0,0,0,20,0,0,0,0,0
AFURI 恵比寿,35.64829473871925,139.7108721840907,9,1,1,18,8,0,0,0,2,0,0,0,0
えびそば 一幻 八重洲地下街店,35.67861301688898,139.76809539953283,3,2,14,11,0,0,0,0,0,0,0,0,0
つけめんTETSU 千駄木本店,35.73121743868225,139.76011928489376,1,15,4,3,37,0,0,0,18,0,4,0,0
唐そば,35.65846343871054,139.70382278419834,1,16,0,0,18,0,0,0,1,0,0,0,0
鶏王けいすけ 秋葉原店,35.69842493870629,139.77017198455547,2,0,0,1,10,0,0,0,0,0,1,0,16
やっとこ 三田店,35.64782031619816,139.74297751443376,1,2,25,3,0,5,0,0,0,1,2,0,0
支那麺 はしご 銀座四丁目店,35.6697735387241,139.76896498426692,8,0,0,0,1,0,0,15,0,0,0,0,0
麺屋優光 銀座店,35.670200138721015,139.76011788427746,17,0,0,6,0,0,0,0,0,0,0,0,0
麺屋宗&SOU 中目黒店,35.6408309035273,139.70199707299383,13,0,0,38,11,0,0,0,2,2,0,0,4
長岡食堂 東京ラーメン横丁店,35.68148345851688,139.76960242618603,46,1,6,13,0,1,0,0,0,2,0,0,0
ラーメンBAR やきそばー HIT,35.73279563867443,139.73870178492473,3,2,0,0,4,0,0,0,1,4,0,0,0
らー麺 夢あかり,35.72566013867617,139.72989808485883,0,3,1,1,13,0,0,0,13,3,0,0,0
鮎ラーメン+ 虎ノ門横丁店,35.667597238719495,139.75012908425813,2,0,0,11,0,0,0,0,1,0,0,0,0
自家製熟成麺 吉岡,35.722294464352636,139.7049739083704,24,0,0,1,0,0,1,0,0,0,0,0,0
横濱 本丸亭  新橋店,35.664643638723554,139.75703198422346,0,0,0,46,0,0,0,0,3,0,0,0,0
ラーメン ドゥエ エド ジャパン,35.670731738718544,139.7534167842875,16,0,0,1,0,0,0,0,1,0,0,0,0
神田とりそば なな蓮,35.69028320808596,139.77098989960578,13,0,0,19,3,0,0,0,1,0,0,0,0
集来,35.65633193872784,139.75389898414173,5,0,0,7,1,0,0,0,2,0,0,0,0
えっちゃんラーメン。,35.69427660100309,139.7020519242061,4,1,0,3,1,0,0,0,0,0,0,0,0
吉法師,35.66257050668638,139.70108087037562,0,0,0,7,0,0,0,0,0,0,0,0,4
こいけのいえけい,35.730268938676296,139.7394949848986,15,17,0,5,4,24,0,0,1,0,0,0,0
麺たつ,35.73636683866776,139.7248612849705,7,4,0,25,0,1,0,0,1,0,0,0,0
らあめん あじるく,35.73301070890754,139.73052601509738,1,0,0,16,0,0,0,0,1,0,0,0,0
ひるがお 東京駅店,35.68022652869294,139.7683093960124,8,0,1,46,10,0,0,0,5,0,0,0,0
江戸前煮干中華そば きみはん 五反田店,35.62554313873791,139.7241113838516,2,0,4,4,4,0,3,0,1,0,0,0,0
雲林坊 秋葉原店,35.69547712823061,139.77277867857654,0,0,1,3,0,0,0,9,0,0,0,0,0
つじ田 味噌の章 東京駅店,35.680391434231474,139.76789227896487,1,0,56,1,2,0,0,0,0,0,0,0,0
生粋 池袋本店,35.7322442770704,139.70747129841013,14,0,0,19,2,0,0,0,13,6,0,0,0
末廣ラーメン本舗 高田馬場分店,35.71190233867812,139.7085918847348,14,1,0,7,0,0,0,0,0,0,0,0,0
らすた 代々木店,35.682652246400274,139.70101106268433,8,3,0,0,2,23,0,0,0,0,1,0,0
銀座 いし井 五反田店,35.62361013873851,139.72213088383344,0,0,0,0,18,0,0,0,1,0,0,0,0
銀座 篝 Echika池袋店,35.731749882562156,139.70730272406226,10,1,0,6,1,0,1,0,1,0,1,0,15
秋葉原ラーメン わいず,35.70274269968098,139.77047103570635,4,2,1,5,11,20,3,0,2,0,0,0,0
しお貫,35.64511766897498,139.71799943551738,1,0,3,29,1,0,0,0,0,0,0,0,0
ラーメン長山,35.72081763869508,139.77963198477505,7,11,12,0,1,0,0,0,0,0,0,0,0
博多麺房 赤のれん 丸ビル店,35.68106963871541,139.7641663843844,6,7,0,3,0,2,0,8,0,0,0,0,0
六厘舎 上野店,35.7121830386991,139.77504828469105,2,5,0,2,15,0,1,0,2,0,0,0,0
そめいよしの,35.691438568229316,139.76687741017494,16,0,0,6,7,0,0,0,0,0,0,0,1
ZOOT,35.65714133872801,139.7560697841484,4,2,4,8,7,0,0,0,4,0,0,0,0
鳥藤 とりそばスタンド グランスタ東京店,35.67980053871724,139.7673843843693,5,0,0,10,0,0,0,9,0,0,0,0,0
ジカセイ メンショウ,35.66206433870666,139.69883368423822,20,1,0,5,1,0,0,2,5,1,0,0,10
中華そば つけめん 玉 新宿店,35.68652658613156,139.70283795480168,5,6,0,1,22,0,0,0,17,2,0,0,0
自家製熟成麺 吉岡 田端店,35.74079543867658,139.76134838498967,8,2,2,10,5,0,0,0,16,0,0,0,0
瀬戸内いりこラーメン 古田島,35.69107948103531,139.7692283425744,3,1,0,2,0,3,0,0,0,3,1,0,0
なんでんかんでん 西新宿店,35.69474773868577,139.69841238456866,0,17,0,0,1,0,0,0,0,0,0,0,0
麺処グロース,35.7291287431923,139.705537158041,2,8,0,5,17,0,0,0,7,0,1,0,0
味噌麺処 花道庵 北参道店,35.67700843870001,139.70771148438294,2,1,58,4,1,0,0,1,0,0,0,0,0
日の丸 さんじ,35.71073979531507,139.7803884549759,5,1,1,8,1,0,0,2,1,1,1,0,0
広州市場 西新宿店,35.68952673868867,139.6971037845168,13,0,0,28,0,0,0,0,0,0,0,0,0
瞠 池袋本店,35.7318386448263,139.71649973394256,1,1,0,1,12,0,1,0,7,4,9,0,0
麺匠 竹虎 本店,35.69589983868632,139.70242178457747,10,9,12,2,9,0,0,0,2,0,0,0,0
俺の空 新宿店,35.69336463868655,139.6981109845549,0,4,0,4,20,0,0,0,14,1,3,0,0
ラーメン凪 豚王 渋谷本店,35.6575245043809,139.7082163434358,1,31,1,7,0,0,0,0,0,0,0,0,0
